[
  { "name": "Delhi",         "lat": 28.6139, "lng": 77.2090, "state": "Delhi" },
  { "name": "Mumbai",        "lat": 19.0760, "lng": 72.8777, "state": "Maharashtra" },
  { "name": "Bangalore",     "lat": 12.9716, "lng": 77.5946, "state": "Karnataka" },
  { "name": "Chennai",       "lat": 13.0827, "lng": 80.2707, "state": "Tamil Nadu" },
  { "name": "Kolkata",       "lat": 22.5726, "lng": 88.3639, "state": "West Bengal" },
  { "name": "Hyderabad",     "lat": 17.3850, "lng": 78.4867, "state": "Telangana" },
  { "name": "Pune",          "lat": 18.5204, "lng": 73.8567, "state": "Maharashtra" },
  { "name": "Ahmedabad",     "lat": 23.0225, "lng": 72.5714, "state": "Gujarat" },
  { "name": "Jaipur",        "lat": 26.9124, "lng": 75.7873, "state": "Rajasthan" },
  { "name": "Lucknow",       "lat": 26.8467, "lng": 80.9462, "state": "Uttar Pradesh" },
  { "name": "Kanpur",        "lat": 26.4499, "lng": 80.3319, "state": "Uttar Pradesh" },
  { "name": "Nagpur",        "lat": 21.1458, "lng": 79.0882, "state": "Maharashtra" },
  { "name": "Patna",         "lat": 25.5941, "lng": 85.1376, "state": "Bihar" },
  { "name": "Indore",        "lat": 22.7196, "lng": 75.8577, "state": "Madhya Pradesh" },
  { "name": "Bhopal",        "lat": 23.2599, "lng": 77.4126, "state": "Madhya Pradesh" },
  { "name": "Ludhiana",      "lat": 30.9010, "lng": 75.8573, "state": "Punjab" },
  { "name": "Agra",          "lat": 27.1767, "lng": 78.0081, "state": "Uttar Pradesh" },
  { "name": "Varanasi",      "lat": 25.3176, "lng": 82.9739, "state": "Uttar Pradesh" },
  { "name": "Amritsar",      "lat": 31.6340, "lng": 74.8723, "state": "Punjab" },
  { "name": "Vadodara",      "lat": 22.3072, "lng": 73.1812, "state": "Gujarat" },
  { "name": "Surat",         "lat": 21.1702, "lng": 72.8311, "state": "Gujarat" },
  { "name": "Visakhapatnam", "lat": 17.6868, "lng": 83.2185, "state": "Andhra Pradesh" },
  { "name": "Coimbatore",    "lat": 11.0168, "lng": 76.9558, "state": "Tamil Nadu" },
  { "name": "Kochi",         "lat": 9.9312,  "lng": 76.2673, "state": "Kerala" },
  { "name": "Chandigarh",    "lat": 30.7333, "lng": 76.7794, "state": "Chandigarh" },
  { "name": "Guwahati",      "lat": 26.1445, "lng": 91.7362, "state": "Assam" },
  { "name": "Ranchi",        "lat": 23.3441, "lng": 85.3096, "state": "Jharkhand" },
  { "name": "Raipur",        "lat": 21.2514, "lng": 81.6296, "state": "Chhattisgarh" },
  { "name": "Jodhpur",       "lat": 26.2389, "lng": 73.0243, "state": "Rajasthan" },
  { "name": "Meerut",        "lat": 28.9845, "lng": 77.7064, "state": "Uttar Pradesh" }
]
